City_ID,City,Lat,Lng,Max Temp,Humidity,Cloudiness,Wind Speed,Country,Date
0,lautoka,-17.6167,177.4667,27.92,57,40,6.69,FJ,1691038376
1,qaqortoq,60.7167,-46.0333,5.49,89,93,2.35,GL,1691038376
2,rice lake,45.5061,-91.7382,22.99,100,0,0.0,US,1691038224
3,hermanus,-34.4187,19.2345,13.78,46,96,4.64,ZA,1691038377
4,ishigaki,24.3448,124.1572,26.07,94,75,12.35,JP,1691038378
5,tazacorte,28.629,-17.9293,23.54,73,100,8.23,ES,1691038379
6,grytviken,-54.2811,-36.5092,-0.48,95,100,1.97,GS,1691038379
7,bilibino,68.0546,166.4372,10.78,94,100,2.51,RU,1691038380
8,reggane,26.7158,0.1714,37.28,10,57,7.59,DZ,1691038380
9,tiksi,71.6872,128.8694,5.54,89,100,6.28,RU,1691038226
10,petropavlovsk-kamchatsky,53.0452,158.6483,16.33,77,75,1.0,RU,1691038382
11,coquimbo,-29.9533,-71.3436,14.85,94,100,2.57,CL,1691038382
12,port-aux-francais,-49.35,70.2167,2.16,99,100,10.95,TF,1691038383
13,margaret river,-33.95,115.0667,12.37,57,90,3.71,AU,1691038383
14,olonkinbyen,70.9221,-8.7187,6.15,82,100,3.8,SJ,1691038384
15,rio grande,-32.035,-52.0986,17.19,94,42,8.5,BR,1691038384
16,antofagasta,-23.65,-70.4,17.6,78,0,0.74,CL,1691038332
17,weiser,44.251,-116.9693,29.11,60,98,2.31,US,1691038124
18,kone,-21.0595,164.8658,20.3,66,99,3.93,NC,1691038386
19,gazli,40.1333,63.45,35.21,11,0,7.41,UZ,1691038387
20,bethel,41.3712,-73.414,20.36,79,0,0.0,US,1691038141
21,yuzhno-kurilsk,44.0306,145.8556,21.69,82,100,5.44,RU,1691038388
22,vadso,70.0744,29.7487,21.49,77,0,6.17,NO,1691038388
23,adamstown,-25.066,-130.1015,21.44,75,32,9.68,PN,1691038389
24,broome,42.2506,-75.833,18.71,75,32,2.16,US,1691038390
25,albany,42.6001,-73.9662,17.23,81,31,0.45,US,1691037727
26,port alfred,-33.5906,26.891,16.1,41,2,4.34,ZA,1691038391
27,mount pearl,47.5166,-52.7813,16.19,93,100,5.14,CA,1691038392
28,agustin codazzi,10.0341,-73.2361,23.22,82,3,2.11,CO,1691038392
29,harper,4.375,-7.7169,24.04,85,100,3.85,LR,1691038393
30,waitangi,-43.9535,-176.5597,6.57,64,100,19.48,NZ,1691038394
31,vilyuchinsk,52.9306,158.4028,17.15,81,90,1.04,RU,1691038394
32,savanna-la-mar,18.219,-78.1332,27.97,86,88,1.41,JM,1691038395
33,kozhevnikovo,56.2589,83.9714,27.96,48,100,1.78,RU,1691038395
34,weinzierl bei krems,48.4,15.6,21.01,80,86,2.97,AT,1691038396
35,mossel bay,-34.1831,22.146,22.96,41,44,4.05,ZA,1691038397
36,eyl,7.9803,49.8164,28.81,46,99,12.86,SO,1691038397
37,yellowknife,62.456,-114.3525,18.29,59,75,3.09,CA,1691038398
38,invercargill,-46.4,168.35,10.57,88,88,4.02,NZ,1691038243
39,alofi,-19.0595,-169.9187,19.94,94,100,5.66,NU,1691038399
40,tolanaro,-25.0319,46.9987,19.04,77,75,4.12,MG,1691038400
41,ribeira grande,38.5167,-28.7,23.21,87,100,6.26,PT,1691038400
42,lazaro cardenas,17.9583,-102.2,27.39,84,100,0.66,MX,1691038401
43,yamada,39.4667,141.95,28.56,72,40,3.7,JP,1691038401
44,belokurikha,51.9959,84.9896,27.24,47,100,1.51,RU,1691038402
45,al mindak,20.1588,41.2834,22.78,31,12,1.04,SA,1691038403
46,kapuskasing,49.4169,-82.4331,15.0,100,100,1.54,CA,1691038403
47,kodiak,57.79,-152.4072,11.73,87,0,3.09,US,1691038139
48,hadibu,12.65,54.0333,27.37,73,38,13.12,YE,1691038405
49,clodomira,-27.5744,-64.1311,23.45,42,1,7.7,AR,1691038405
50,edinburgh of the seven seas,-37.0676,-12.3116,13.91,83,96,17.53,SH,1691038406
51,kristiansund,63.1115,7.732,14.36,88,75,1.54,NO,1691038406
52,puerto natales,-51.7236,-72.4875,4.12,93,100,7.69,CL,1691038407
53,walvis bay,-22.9575,14.5053,11.72,93,100,0.51,NA,1691038408
54,fort bragg,35.139,-79.006,22.68,78,0,0.0,US,1691038278
55,benghazi,32.1167,20.0667,27.42,60,0,1.17,LY,1691038409
56,zafarwal,32.3463,74.8999,31.46,57,46,2.61,PK,1691038409
57,teguise,29.0605,-13.564,21.12,78,0,8.75,ES,1691038410
58,carentan,49.3031,-1.2481,16.82,94,92,3.85,FR,1691038410
59,plettenberg bay,-34.0527,23.3716,14.27,48,27,4.16,ZA,1691038411
60,chaplynka,46.3651,33.5403,23.69,69,91,2.96,UA,1691038412
61,la celle-saint-cloud,48.8503,2.1452,15.68,93,100,6.17,FR,1691038412
62,ushuaia,-54.8,-68.3,2.81,81,75,3.6,AR,1691038413
63,tindouf,27.6711,-8.1474,30.25,17,0,7.72,DZ,1691038413
64,iqaluit,63.7506,-68.5145,7.85,87,75,1.54,CA,1691038414
65,soio,-6.1349,12.3689,19.56,90,85,0.24,AO,1691038415
66,kayangel,8.0823,134.7173,27.05,77,99,1.71,PW,1691038416
67,blackmans bay,-43.0167,147.3167,18.18,51,100,3.75,AU,1691038417
68,pandan,14.0453,124.1694,31.86,64,100,5.43,PH,1691038418
69,west island,-12.1568,96.8225,24.99,69,100,8.23,CC,1691038419
70,saint-francois,46.4154,3.9054,15.69,77,0,2.57,FR,1691038419
71,thompson,55.7435,-97.8558,18.09,88,75,3.6,CA,1691038420
72,aykhal,66.0,111.5,10.0,60,66,6.32,RU,1691038421
73,naze,28.3667,129.4833,27.51,88,100,8.28,JP,1691038422
74,georgetown,5.4112,100.3354,31.96,74,40,3.6,MY,1691038134
75,stanley,54.868,-1.6985,11.74,92,20,3.09,GB,1691038423
76,namdrik,5.5994,168.1028,28.91,74,12,3.45,MH,1691038423
77,alice springs,-23.7,133.8833,26.75,22,40,4.63,AU,1691038424
78,dudinka,69.4058,86.1778,20.9,34,15,7.44,RU,1691038425
79,buala,-8.145,159.5921,27.14,83,99,3.72,SB,1691038425
80,avellaneda,-29.1176,-59.6583,21.77,50,5,3.63,AR,1691038426
81,tazovsky,67.4667,78.7,18.54,52,7,5.06,RU,1691038353
82,tsiombe,-25.3,45.4833,19.68,56,68,5.96,MG,1691038427
83,puerto ayora,-0.7393,-90.3518,23.64,92,31,0.89,EC,1691038427
84,myeik,12.4333,98.6,28.14,85,99,6.43,MM,1691038428
85,fiambala,-27.6871,-67.6149,14.94,36,0,1.36,AR,1691038429
86,luderitz,-26.6481,15.1594,18.0,27,0,4.0,NA,1691038429
87,mabaruma,8.2,-59.7833,23.82,93,18,0.79,GY,1691038430
88,quartu sant'elena,39.2419,9.1839,24.46,69,0,3.09,IT,1691038131
89,ilulissat,69.2167,-51.1,8.01,87,100,0.0,GL,1691038431
90,minas de marcona,-15.2119,-75.1103,12.74,81,38,2.87,PE,1691038431
91,jamestown,42.097,-79.2353,19.84,80,75,3.09,US,1691038216
92,khovd,48.0056,91.6419,24.87,36,14,4.05,MN,1691038433
93,limon,10.0,-83.0333,25.59,85,100,2.06,CR,1691038434
94,westport,41.1415,-73.3579,21.9,73,0,5.66,US,1691038434
95,gizo,-8.103,156.8419,26.86,86,99,7.8,SB,1691038435
96,tutoia,-2.7619,-42.2744,25.94,82,11,5.26,BR,1691038435
97,yarrawonga,-36.0167,146.0,19.17,56,0,4.04,AU,1691038436
98,konosha,60.9736,40.257,21.91,60,27,1.79,RU,1691038436
99,whitehorse,60.7161,-135.0538,23.34,47,20,1.03,CA,1691038437
100,hotan,37.0997,79.9269,31.32,22,90,7.84,CN,1691038438
101,grojec,51.8625,20.8676,20.67,64,98,6.1,PL,1691038438
102,chibougamau,49.9168,-74.3659,15.79,72,100,4.63,CA,1691038439
103,tuburan,6.6439,122.2736,33.05,75,78,5.07,PH,1691038439
104,cururupu,-1.8283,-44.8683,23.38,96,13,1.66,BR,1691038440
105,anadyr,64.75,177.4833,13.28,76,20,6.0,RU,1691038440
106,laguna,38.421,-121.4238,23.63,61,0,4.12,US,1691038441
107,gaziantep,37.0594,37.3825,28.96,39,0,2.06,TR,1691038443
108,maceio,-9.6658,-35.7353,21.69,100,100,1.03,BR,1691038443
109,pucallpa,-8.3791,-74.5539,25.02,83,20,1.03,PE,1691038444
110,angra do heroismo,38.65,-27.2167,23.4,93,75,0.89,PT,1691038445
111,fada,9.5667,8.3,19.55,99,98,0.85,NG,1691038445
112,rongelap,11.1635,166.8941,28.71,76,15,5.37,MH,1691038446
113,luganville,-15.5333,167.1667,24.3,84,100,3.4,VU,1691038383
114,bredasdorp,-34.5322,20.0403,10.0,40,80,2.92,ZA,1691038447
115,fedorovskiy,45.0972,40.9517,23.78,64,96,1.9,RU,1691038447
116,port elizabeth,-33.918,25.5701,10.16,76,0,1.54,ZA,1691038448
117,papatowai,-46.5619,169.4708,9.75,83,87,4.75,NZ,1691038449
118,kangundo,-1.2979,37.3471,16.19,80,99,0.66,KE,1691038449
119,wailua homesteads,22.0669,-159.378,29.24,80,0,6.69,US,1691038450
120,lompoc,34.6391,-120.4579,14.73,91,100,7.2,US,1691038392
121,christchurch,-43.5333,172.6333,9.07,82,75,2.57,NZ,1691038451
122,labrador city,52.9463,-66.9114,9.95,100,100,1.54,CA,1691038451
123,nakamura,32.9833,132.9333,30.87,65,41,3.09,JP,1691038452
124,santa ana,33.7456,-117.8678,25.75,73,0,3.09,US,1691038453
125,isafjordur,66.0755,-23.124,9.36,89,34,1.31,IS,1691038453
126,lihue,21.9789,-159.3672,29.58,73,0,6.69,US,1691038454
127,safford,32.834,-109.7076,34.51,29,0,6.69,US,1691038454
128,vila franca do campo,37.7167,-25.4333,23.23,93,100,1.53,PT,1691038455
129,polyarnyy,69.1989,33.4478,19.6,65,13,4.98,RU,1691038455
130,dili,-8.5586,125.5736,27.06,68,4,3.03,TL,1691038456
131,qaisumah,28.3112,46.1273,34.98,11,0,4.12,SA,1691038457
132,manokwari,-0.8667,134.0833,28.01,73,93,1.71,ID,1691038457
133,siniscola,40.5719,9.6922,23.75,63,0,2.04,IT,1691038458
134,puqi,29.7167,113.8833,34.23,60,99,1.48,CN,1691038459
135,antanifotsy,-19.65,47.3167,10.76,83,27,3.58,MG,1691038460
136,santa cruz,-17.8,-63.1667,21.7,83,0,2.57,BO,1691038460
137,phanat nikhom,13.4458,101.1844,32.95,64,100,6.44,TH,1691038461
138,college,64.8569,-147.8028,25.99,41,75,3.6,US,1691038461
139,swakopmund,-22.6833,14.5333,11.66,89,0,1.34,NA,1691038462
140,khandyga,62.6667,135.6,21.89,46,47,0.95,RU,1691038463
141,palmer,42.1584,-72.3287,15.5,81,0,0.0,US,1691038463
142,cooma,-36.2333,149.1333,16.41,39,9,5.71,AU,1691038464
143,colonia,50.9333,6.95,17.2,82,93,0.45,DE,1691038176
144,hengshui,37.7322,115.7011,34.2,61,0,6.57,CN,1691038465
145,semenivka,52.1783,32.5818,20.19,76,17,1.68,UA,1691038427
146,cockburn town,21.4612,-71.1419,28.59,74,86,4.45,TC,1691038466
147,taoudenni,22.6783,-3.9836,38.51,8,31,2.13,ML,1691038467
148,'ali al gharbi,32.4633,46.6864,42.72,8,0,9.56,IQ,1691038468
149,pangoa,-12.1167,-73.0,20.33,73,87,1.53,PE,1691038468
150,new norfolk,-42.7826,147.0587,18.84,49,99,3.9,AU,1691038469
151,kismayo,-0.3582,42.5454,25.33,77,100,7.5,SO,1691038469
152,mejit,10.2753,170.8646,28.43,78,11,6.35,MH,1691038470
153,belmonte,-15.8631,-38.8828,20.29,82,0,1.48,BR,1691038470
154,nelson bay,-32.7167,152.15,21.72,66,0,7.6,AU,1691038471
155,karoi,-16.8099,29.6925,9.23,87,1,3.12,ZW,1691038472
156,badger,64.8,-147.5333,25.95,42,0,3.6,US,1691038472
157,ouricuri,-7.8825,-40.0817,21.14,88,60,3.1,BR,1691038473
158,sorong,-0.8833,131.25,28.04,79,25,3.12,ID,1691038474
159,colares,38.7992,-9.4469,19.31,75,13,9.83,PT,1691038474
160,magadan,59.5667,150.8,18.63,75,100,1.66,RU,1691038475
161,lokomotivnyy,53.0118,60.5684,18.56,82,15,3.58,RU,1691038476
162,yeosu,34.7546,127.6599,29.99,66,20,3.3,KR,1691038476
163,talnakh,69.4865,88.3972,20.67,21,16,0.89,RU,1691038477
164,lebu,-37.6167,-73.65,6.89,74,12,7.63,CL,1691038477
165,st. john's,47.5649,-52.7093,16.66,93,100,5.14,CA,1691038412
166,saint-pierre,-21.3393,55.4781,24.2,83,100,9.26,RE,1691038478
167,petropavlovka,50.6114,105.3196,19.77,81,100,2.62,RU,1691038479
168,marquette,46.5333,-87.6335,19.54,93,0,0.89,US,1691038385
169,hawaiian paradise park,19.5933,-154.9731,26.73,79,40,2.06,US,1691038480
170,queenstown,-31.8976,26.8753,6.04,52,0,2.81,ZA,1691038085
171,tual,-5.6667,132.75,26.27,83,28,7.58,ID,1691038481
172,harstad,68.799,16.5293,19.66,75,100,10.73,NO,1691038482
173,talitsy,56.5289,42.3344,20.41,83,33,1.79,RU,1691038482
174,qoryooley,1.7878,44.53,24.72,78,100,6.21,SO,1691038483
175,thinadhoo,0.5333,72.9333,27.84,72,64,2.5,MV,1691038484
176,camiri,-20.05,-63.5167,16.48,61,0,1.0,BO,1691038484
177,vakarai,55.6035,23.8213,17.29,65,93,5.52,LT,1691038485
178,inhambane,-23.865,35.3833,16.99,82,75,5.36,MZ,1691038486
179,crane,31.3974,-102.3501,30.42,30,5,7.41,US,1691038468
180,ancud,-41.8697,-73.8203,3.75,76,36,1.39,CL,1691038487
181,ulanhot,46.0833,122.0833,24.16,84,90,5.24,CN,1691038488
182,punta arenas,-53.15,-70.9167,4.17,91,100,11.65,CL,1691038489
183,solok,-0.7918,100.6593,27.53,51,95,0.89,ID,1691038490
184,chinu,9.1057,-75.3981,24.5,91,0,2.44,CO,1691038360
185,sanjwal,33.7608,72.4336,34.16,50,28,2.2,PK,1691038491
186,port mathurin,-19.6833,63.4167,23.49,76,9,5.82,MU,1691038492
187,nagqu,31.5,92.0,13.92,55,86,1.04,CN,1691038493
188,kabansk,52.0486,106.6528,16.37,98,100,1.04,RU,1691038494
189,rio san juan,19.6439,-70.0763,25.64,86,99,1.44,DO,1691038495
190,rabo de peixe,37.8,-25.5833,22.73,94,75,2.06,PT,1691038495
191,sisimiut,66.9395,-53.6735,5.27,92,97,0.34,GL,1691038496
192,nova sintra,14.8667,-24.7167,22.37,82,74,3.02,CV,1691038496
193,usinsk,65.9939,57.5281,22.67,58,0,1.39,RU,1691038497
194,la gi,10.6667,107.7833,29.21,75,100,6.89,VN,1691038497
195,ibiza,38.9088,1.433,28.45,86,20,6.69,ES,1691038238
196,udachny,66.4167,112.4,10.25,66,66,7.33,RU,1691038499
197,klyuchi,52.2667,79.1667,31.43,30,96,3.17,RU,1691038499
198,racine,42.7495,-88.0751,22.46,85,86,1.37,US,1691038500
199,rajula,21.05,71.4333,28.41,73,99,8.08,IN,1691038500
200,hue,16.4667,107.6,31.06,74,75,2.06,VN,1691038501
201,tadine,-21.55,167.8833,20.37,72,100,10.54,NC,1691038501
202,zhangjiakou,40.81,114.8794,32.07,57,90,1.08,CN,1691038502
203,labytnangi,66.6572,66.4183,22.92,51,0,7.82,RU,1691038503
204,victorica,-36.2151,-65.4359,7.84,34,39,2.53,AR,1691038503
205,katsuren-haebaru,26.3369,127.8719,29.01,89,100,7.72,JP,1691038504
206,sur,22.5667,59.5289,34.07,50,46,1.14,OM,1691038504
207,chinde,26.8418,88.0763,22.9,82,100,2.81,NP,1691038505
208,machakos,-1.5167,37.2667,15.97,83,98,0.83,KE,1691038506
209,las terrenas,19.311,-69.5428,25.48,90,99,1.56,DO,1691038506
210,ulsteinvik,62.3432,5.8487,17.09,86,97,4.02,NO,1691038507
211,atafu village,-8.5421,-172.5159,28.37,76,68,5.02,TK,1691038509
212,galliano,29.4422,-90.2992,27.0,88,54,0.0,US,1691038510
213,mhamid,29.82,-5.72,31.06,15,0,2.99,MA,1691038510
214,bangassou,4.7413,22.8184,20.07,99,100,0.66,CF,1691038511
215,betio village,1.358,172.9211,31.02,70,73,2.02,KI,1691038511
216,san rafael,-34.6177,-68.3301,8.12,41,6,2.15,AR,1691038513
217,mayya,61.7333,130.2811,22.62,38,14,1.12,RU,1691038513
218,bantay,17.5847,120.3892,29.98,75,100,9.96,PH,1691038514
219,puerto armuelles,8.2833,-82.8667,27.83,70,100,1.34,PA,1691038309
220,yssingeaux,45.1333,4.1167,13.7,74,66,3.4,FR,1691038516
221,opuwo,-18.0607,13.84,12.57,21,0,1.75,NA,1691038516
222,kolonia,50.9333,6.95,17.2,82,93,0.45,DE,1691038459
223,cabo san lucas,22.8909,-109.9124,31.45,67,35,2.68,MX,1691038253
224,amos,48.5669,-78.1162,13.17,99,100,2.84,CA,1691038457
225,coahuayana de hidalgo,18.7,-103.6583,26.22,93,100,0.89,MX,1691038519
226,port pirie,-33.1833,138.0167,22.13,39,74,9.17,AU,1691038520
227,san jose del guaviare,2.5729,-72.6459,21.89,85,4,1.0,CO,1691038521
228,sumbe,-11.2061,13.8437,19.34,93,6,0.41,AO,1691038521
229,awjilah,29.1081,21.2869,27.92,46,0,2.86,LY,1691038522
230,lata,40.1629,-8.3327,19.34,97,24,1.12,PT,1691038523
231,gadzhiyevo,69.2551,33.3362,19.74,65,13,4.73,RU,1691038523
232,jequie,-13.8575,-40.0836,16.21,98,4,0.53,BR,1691038281
233,bestobe,52.4994,73.0975,28.48,43,65,4.52,KZ,1691038524
234,kasongo-lunda,-6.4667,16.8167,18.06,41,37,0.17,CD,1691038525
235,saudarkrokur,65.7461,-19.6394,7.51,89,75,3.23,IS,1691038526
236,fortuna,40.5982,-124.1573,15.19,93,0,3.09,US,1691038526
237,aasiaat,68.7098,-52.8699,3.13,94,100,0.64,GL,1691038527
238,kayyerkan,69.3786,87.7439,20.72,42,16,2.71,RU,1691038528
239,carnarvon,-24.8667,113.6333,18.46,55,24,8.41,AU,1691038529
240,arraial do cabo,-22.9661,-42.0278,19.74,84,0,8.77,BR,1691038529
241,avarua,-21.2078,-159.775,23.03,94,75,4.63,CK,1691038530
242,san andres,12.5847,-81.7006,27.01,89,20,2.06,CO,1691038530
243,afaahiti,-17.75,-149.2833,25.93,69,4,4.5,PF,1691038531
244,san luis de la loma,17.2706,-100.8939,26.37,86,100,2.01,MX,1691038532
245,the pas,53.8251,-101.2541,20.01,73,0,2.57,CA,1691038532
246,kincardine,56.0667,-3.7167,14.4,86,99,2.03,GB,1691038533
247,port isabel,26.0734,-97.2086,30.02,81,0,6.17,US,1691038533
248,pachino,36.7186,15.0907,25.71,65,0,1.06,IT,1691038534
249,ust-nera,64.5667,143.2,20.4,34,68,1.94,RU,1691038534
250,praia da vitoria,38.7333,-27.0667,23.2,94,75,6.43,PT,1691038535
251,thayetmyo,19.3167,95.1833,29.02,81,93,3.71,MM,1691038536
252,utrik,11.2278,169.8474,28.59,76,10,5.67,MH,1691038537
253,fort st. john,56.2499,-120.8529,11.94,94,100,2.57,CA,1691038537
254,miri,4.4148,114.0089,28.08,83,40,4.12,MY,1691038538
255,ceerigaabo,10.6162,47.368,18.08,64,41,11.49,SO,1691038538
256,jieshi,22.8134,115.8257,30.98,69,94,5.64,CN,1691038539
257,comandante fontana,-25.3345,-59.6821,21.21,44,0,1.65,AR,1691038540
258,iskateley,67.6803,53.1512,23.85,55,2,3.38,RU,1691038540
259,saint croix,17.7397,-64.7388,26.36,85,13,4.15,VI,1691038541
260,dakhla,23.6848,-15.958,19.87,88,27,8.92,EH,1691038541
261,susuman,62.7833,148.1667,14.94,45,96,7.32,RU,1691038542
262,prado,-17.3411,-39.2208,19.72,84,40,2.0,BR,1691038542
263,karratha,-20.7377,116.8463,24.84,61,100,1.58,AU,1691038543
264,balykshi,47.0667,51.8667,31.0,27,0,4.0,KZ,1691038544
265,ciudad barrios,13.7667,-88.2667,17.17,99,100,1.39,SV,1691038544
266,novodvinsk,64.4165,40.8122,22.5,60,55,1.46,RU,1691038545
267,patur,20.45,76.9333,24.42,88,100,5.05,IN,1691038545
268,orchha,25.35,78.65,25.41,95,100,3.8,IN,1691038546
269,chernyshevsk,52.5243,117.0174,27.05,21,99,6.21,RU,1691038546
270,yeniseysk,58.4497,92.1703,25.25,68,87,2.49,RU,1691038547
271,al kut,32.5147,45.819,40.98,11,0,9.68,IQ,1691038548
272,mulayjah,27.271,48.4242,41.26,8,0,6.14,SA,1691038548
273,hami,42.8,93.45,36.82,13,0,2.69,CN,1691038549
274,takoradi,4.8845,-1.7554,23.74,86,100,3.98,GH,1691038549
275,nemuro,43.3236,145.575,19.05,91,100,5.08,JP,1691038550
276,puerto baquerizo moreno,-0.9,-89.6,23.82,79,6,4.65,EC,1691038351
277,saldanha,-33.0117,17.9442,9.03,46,51,5.85,ZA,1691038551
278,floro,61.5996,5.0328,14.98,94,40,1.54,NO,1691038552
279,vila velha,-20.3297,-40.2925,17.19,93,0,0.51,BR,1691038552
280,kabo,7.6994,18.629,21.13,98,100,0.47,CF,1691038553
281,bonthe,7.5264,-12.505,24.81,90,91,3.69,SL,1691038553
282,portland,45.5234,-122.6762,25.32,49,0,3.6,US,1691038066
283,laojunmiao,39.8333,97.7333,27.61,21,11,4.2,CN,1691038554
284,wattegama,6.7989,81.4808,35.64,33,26,3.41,LK,1691038555
285,el sauzal de rodriguez,31.9,-116.6833,20.79,81,9,2.58,MX,1691038556
286,alpine,32.835,-116.7664,21.8,63,0,2.06,US,1691038509
287,ciudad lazaro cardenas,17.9583,-102.2,27.39,84,100,0.66,MX,1691038401
288,suntar,62.1444,117.6319,27.16,29,5,0.97,RU,1691038557
289,quelimane,-17.8786,36.8883,16.97,93,75,5.36,MZ,1691038558
290,bubaque,11.2833,-15.8333,26.22,85,100,5.53,GW,1691038558
291,kingaroy,-26.5333,151.8333,20.92,39,29,5.86,AU,1691038559
292,san patricio,28.017,-97.5169,29.92,75,11,5.17,US,1691038560
293,xai-xai,-25.0519,33.6442,17.55,71,89,2.66,MZ,1691038560
294,mount gambier,-37.8333,140.7667,17.74,55,67,6.29,AU,1691038561
295,quibdo,5.6947,-76.6611,24.07,98,100,0.54,CO,1691038561
296,castillos,-34.1667,-53.8333,12.05,62,98,5.64,UY,1691038562
297,cadale,2.7603,46.3222,25.45,79,100,8.34,SO,1691038562
298,talcahuano,-36.7167,-73.1167,6.82,76,0,2.57,CL,1691038563
299,jayapura,-2.5333,140.7,29.66,76,88,1.61,ID,1691038564
300,constantia,44.1833,28.65,21.38,62,1,2.67,RO,1691038446
301,kathmandu,27.7167,85.3167,28.12,73,40,2.06,NP,1691038035
302,itoman,26.1247,127.6694,29.01,84,75,13.89,JP,1691038565
303,san antonio de pale,-1.4014,5.6325,22.11,77,88,2.87,GQ,1691038566
304,buncrana,55.1333,-7.45,13.37,90,100,6.96,IE,1691038566
305,brookings,44.3114,-96.7984,25.1,84,0,4.12,US,1691038339
306,flin flon,54.7682,-101.865,16.48,75,69,2.67,CA,1691038568
307,jennings,38.7192,-90.2604,24.01,94,100,2.57,US,1691038569
308,kahuta,33.5913,73.3868,31.03,58,38,2.31,PK,1691038569
309,ust'-ilimsk,58.0006,102.6619,25.75,30,25,2.51,RU,1691038355
310,gerash,27.6652,54.1371,34.08,31,5,0.93,IR,1691038570
311,shubarshi,48.5872,57.1869,28.64,29,4,2.74,KZ,1691038571
312,orsta,62.2029,6.1272,15.76,88,100,0.0,NO,1691038571
313,peterhead,57.5058,-1.7981,13.22,95,100,9.04,GB,1691038572
314,sangju,36.4153,128.1606,34.77,51,78,3.25,KR,1691038573
315,dahab,28.501,34.5134,32.26,40,0,4.54,EG,1691038573
316,makhambet,47.6667,51.5833,32.34,21,72,2.15,KZ,1691038574
317,rio brilhante,-21.8019,-54.5464,19.11,44,0,1.71,BR,1691038574
318,horta,38.5333,-28.6333,22.79,86,100,4.92,PT,1691038575
319,geraldton,-28.7667,114.6,16.23,63,75,6.69,AU,1691038577
320,kuqa,41.7278,82.9364,31.66,23,100,2.73,CN,1691038577
321,hammerfest,70.6634,23.6821,21.25,68,40,4.63,NO,1691038578
322,hithadhoo,-0.6,73.0833,27.52,73,52,3.35,MV,1691038579
323,tvoroyri,61.5556,-6.8111,10.49,95,100,6.92,FO,1691038579
324,cabedelo,-6.9811,-34.8339,23.37,84,62,6.91,BR,1691038580
325,pacifica,37.6138,-122.4869,17.35,91,20,6.26,US,1691038561
326,takab,36.4009,47.1133,27.45,20,0,1.11,IR,1691038582
327,mahibadhoo,3.7833,72.9667,27.75,72,50,2.02,MV,1691038582
328,nova xavantina,-14.6667,-52.35,21.53,39,0,1.02,BR,1691038583
329,kruisfontein,-34.0033,24.7314,11.94,36,1,4.65,ZA,1691038583
330,fuerte olimpo,-21.0415,-57.8738,22.31,39,0,2.3,PY,1691038584
331,enoch,37.7733,-113.0244,18.41,68,0,3.09,US,1691038585
332,izazi,-7.2,35.7333,20.96,55,79,2.89,TZ,1691038586
333,ambovombe,-25.1667,46.0833,19.37,59,86,7.28,MG,1691038587
334,tofol,5.3248,163.0078,28.78,73,11,3.32,FM,1691038587
335,jaguaribe,-5.8906,-38.6219,23.64,79,48,0.68,BR,1691038588
336,rikaze,29.25,88.8833,20.23,39,69,0.61,CN,1691038589
337,palanga,55.9175,21.0686,18.01,77,100,5.14,LT,1691038545
338,lisakovsk,52.5369,62.4936,23.35,61,92,3.81,KZ,1691038590
339,merizo village,13.2658,144.6691,30.85,94,100,2.55,GU,1691038591
340,kisangani,0.5167,25.2,21.54,98,98,1.51,CD,1691038592
341,mugia,43.1041,-9.2179,14.39,77,50,6.04,ES,1691038592
342,elva,58.2225,26.4211,16.79,98,100,3.09,EE,1691038594
343,mana,5.6592,-53.7767,25.34,89,66,3.74,GF,1691038594
344,longyearbyen,78.2186,15.6401,9.91,81,75,2.57,SJ,1691038595
345,ghat,24.9647,10.1728,30.0,17,0,3.27,LY,1691038595
346,sabang,5.8933,95.3214,28.52,74,100,10.0,ID,1691038596
347,formosa do rio preto,-11.0483,-45.1931,20.97,65,46,1.87,BR,1691038596
348,murzuq,25.9155,13.9184,27.43,22,0,3.47,LY,1691038597
349,port saint john's,-31.6229,29.5448,13.74,55,0,3.06,ZA,1691038598
350,tainan,22.9908,120.2133,31.95,66,75,4.12,TW,1691038598
351,egilsstadir,65.2653,-14.3948,6.95,93,75,1.54,IS,1691038599
352,grand island,40.925,-98.342,24.16,90,0,1.54,US,1691038447
353,dunedin,-45.8742,170.5036,11.0,72,78,1.34,NZ,1691038491
354,pacific grove,36.6177,-121.9166,15.13,88,75,3.09,US,1691038600
355,eaglehawk,-36.7333,144.25,19.2,46,20,1.34,AU,1691038601
356,sao jose,-28.2333,-49.1667,16.06,76,2,1.18,BR,1691038602
357,enewetak,11.3474,162.3373,28.75,77,87,4.99,MH,1691038602
358,chanika,-5.4167,38.0167,18.51,86,99,3.04,TZ,1691038603
359,prainha,-1.8,-53.48,24.24,74,31,1.27,BR,1691038603
360,vorgashor,67.5833,63.95,24.46,55,4,3.39,RU,1691038604
361,nuuk,64.1835,-51.7216,6.49,86,93,3.02,GL,1691038604
362,morinville,53.8001,-113.652,18.82,86,100,4.12,CA,1691038605
363,sitka,57.0531,-135.33,16.94,77,75,1.54,US,1691038455
364,almeirim,-1.5233,-52.5817,24.38,76,13,1.39,BR,1691038606
365,bode saadu,8.9333,4.7833,23.44,88,99,3.04,NG,1691038607
366,pisco,-13.7,-76.2167,19.03,77,100,3.09,PE,1691038607
367,tevriz,57.509,72.4042,21.81,80,92,0.57,RU,1691038608
368,izberbash,42.5696,47.8645,30.05,51,62,7.58,RU,1691038608
369,hachenburg,50.65,7.8333,15.52,93,100,8.23,DE,1691038609
370,linxia chengguanzhen,35.6003,103.2064,28.54,42,3,2.49,CN,1691038610
371,navasota,30.388,-96.0877,32.25,72,2,5.44,US,1691038510
372,gobabis,-22.45,18.9667,8.68,72,2,7.35,NA,1691038611
373,vernon,50.2581,-119.2691,26.2,25,17,1.03,CA,1691038339
374,huangmei,30.1924,116.025,34.61,58,100,2.48,CN,1691038612
375,el granada,37.5027,-122.4694,18.04,86,100,5.66,US,1691038612
376,yanchep,-31.55,115.6833,15.63,53,47,4.59,AU,1691038613
377,al ghayzah,16.2079,52.176,28.68,74,25,2.3,YE,1691038614
378,isangel,-19.55,169.2667,22.06,88,100,2.57,VU,1691038615
379,pacocha,-17.5833,-71.3333,15.73,86,32,0.78,PE,1691038615
380,weihai,37.5017,122.1136,32.1,57,28,5.64,CN,1691038616
381,irtyshsk,53.3333,75.4572,27.21,44,95,1.58,KZ,1691038616
382,dabrowa bialostocka,53.6536,23.3479,16.88,65,100,5.43,PL,1691038617
383,georgievka,49.3314,81.5761,29.85,35,7,4.62,KZ,1691038617
384,hafar al-batin,28.4328,45.9708,35.32,11,0,4.12,SA,1691038618
385,hamilton,39.1834,-84.5333,22.64,81,75,2.06,US,1691038394
386,dayr hafir,36.1569,37.7078,27.03,60,0,6.83,SY,1691038619
387,baijiantan,45.6333,85.1833,34.51,22,82,2.76,CN,1691038620
388,wellington,-41.2866,174.7756,9.81,78,84,12.35,NZ,1691038153
389,la ronge,55.1001,-105.2842,16.14,82,40,0.51,CA,1691038621
390,codrington,-38.2667,141.9667,16.74,64,76,9.52,AU,1691038622
391,fisterra,42.9049,-9.2629,14.3,76,51,6.31,ES,1691038623
392,st. paul,44.9444,-93.0933,26.76,85,0,1.54,US,1691038417
393,sibut,5.718,19.0739,21.29,99,100,2.67,CF,1691038624
394,vorkuta,67.5,64.0,24.53,56,5,3.19,RU,1691038624
395,al mijlad,11.0333,27.7333,23.79,83,77,3.9,SD,1691038625
396,sinabang,2.4803,96.3801,29.46,66,83,1.37,ID,1691038626
397,southeast arcadia,27.1863,-81.8521,26.01,100,52,3.01,US,1691038627
398,guerrero negro,27.9769,-114.0611,20.54,87,8,6.39,MX,1691038627
399,necochea,-38.5473,-58.7368,6.92,54,55,4.16,AR,1691038628
400,north kingstown,41.5501,-71.4662,19.84,76,0,2.57,US,1691038628
401,hauterive,46.0901,3.4459,17.42,75,94,3.58,FR,1691038629
402,trogir,43.5125,16.2517,26.55,78,0,1.54,HR,1691038629
403,puerto madryn,-42.7692,-65.0385,6.39,42,0,7.43,AR,1691038630
404,rio preto da eva,-2.6994,-59.6997,22.51,94,44,0.81,BR,1691038631
405,kitimat,54.0524,-128.6534,20.21,69,83,1.34,CA,1691038631
406,visakhapatnam,17.69,83.2093,31.4,60,100,6.85,IN,1691038380
407,ambon,-3.6954,128.1814,28.26,95,40,4.12,ID,1691038632
408,neman,55.0311,22.0264,18.45,66,100,6.36,RU,1691038633
409,port lincoln,-34.7333,135.8667,22.04,43,80,10.4,AU,1691038633
410,warman,52.3168,-106.5679,20.95,56,0,5.66,CA,1691038634
411,sao gabriel da cachoeira,-0.1303,-67.0892,22.27,99,100,0.61,BR,1691038635
412,gaspe,48.8334,-64.4819,15.95,100,0,1.54,CA,1691038502
413,iwanai,42.9744,140.5089,28.99,70,100,4.01,JP,1691038636
414,tralee,52.2704,-9.7026,13.64,91,100,7.0,IE,1691038636
415,selkirk,50.1436,-96.8845,25.04,83,12,3.76,CA,1691038637
416,ambahta,29.85,77.3333,32.82,59,51,2.0,IN,1691038637
417,bamboo flat,11.7,92.7167,31.05,70,40,6.17,IN,1691038638
418,puerto santander,8.3636,-72.4063,30.67,92,30,1.36,CO,1691038639
419,shagonar,51.5333,92.8,23.54,51,40,2.04,RU,1691038639
420,redencao,-4.2258,-38.7306,23.08,94,47,0.61,BR,1691038640
421,nar'yan-mar,67.6713,53.087,23.9,55,2,3.39,RU,1691038640
422,sharan,54.8167,54.0,23.46,60,64,3.25,RU,1691038641
423,richards bay,-28.783,32.0377,13.38,82,0,3.7,ZA,1691038642
424,auce,56.4598,22.9017,17.46,70,100,4.77,LV,1691038643
425,varzea da palma,-17.5981,-44.7308,17.02,48,0,0.96,BR,1691038397
426,dumas,35.8656,-101.9732,29.74,41,0,3.6,US,1691038633
427,kavaratti,10.5669,72.642,28.31,78,100,7.29,IN,1691038645
428,kovalam,8.3667,76.9967,30.05,79,40,4.12,IN,1691038645
429,piqua,40.1448,-84.2424,21.91,87,100,2.25,US,1691038524
430,buchrain,47.086,8.3462,18.38,74,20,4.12,CH,1691038647
431,salamanca,40.8333,-6.0,12.88,85,0,1.9,ES,1691038648
432,ndola,-12.9587,28.6366,11.97,81,1,4.92,ZM,1691038648
433,sungai penuh,-2.0833,101.3833,24.3,78,89,1.2,ID,1691038649
434,harrismith,-28.2728,29.1295,0.95,70,0,1.87,ZA,1691038651
435,tynda,55.1667,124.7167,22.06,35,3,3.25,RU,1691038651
436,greymouth,-42.4667,171.2,7.55,59,2,0.96,NZ,1691038652
437,novo aripuana,-5.1206,-60.3797,22.22,93,27,0.91,BR,1691038652
438,talara,-4.5772,-81.2719,21.35,83,17,6.78,PE,1691038653
439,lae,-6.7221,146.9847,27.37,78,95,2.7,PG,1691038653
440,argo,37.6333,22.7333,26.55,44,0,1.18,GR,1691038445
441,kapa'a,22.0752,-159.319,29.99,80,0,6.69,US,1691038605
442,wanganui,-39.9333,175.05,9.77,61,11,2.68,NZ,1691038392
443,uturoa,-16.7333,-151.4333,26.28,66,8,5.67,PF,1691038659
444,ca mau,9.1769,105.15,31.59,60,100,5.5,VN,1691038659
445,mizdah,31.4451,12.9801,23.96,50,0,1.32,LY,1691038660
446,xilin hot,43.9667,116.0333,31.44,33,89,8.44,CN,1691038660
447,loma de cabrera,19.4333,-71.6,24.08,88,100,1.24,DO,1691038662
448,kingston,17.997,-76.7936,29.53,84,20,3.09,JM,1691038497
449,port douglas,-16.4833,145.4667,23.31,69,20,7.4,AU,1691038663
450,kailua-kona,19.6406,-155.9956,24.72,93,32,1.34,US,1691038407
451,mosjoen,65.836,13.1908,14.29,94,75,2.24,NO,1691038664
452,howard springs,-12.497,131.047,32.95,26,0,2.81,AU,1691038665
453,east london,-33.0153,27.9116,15.52,44,0,5.14,ZA,1691038665
454,touros,-5.1989,-35.4608,23.58,89,6,4.61,BR,1691038530
455,north battleford,52.7834,-108.2847,19.05,55,0,5.66,CA,1691038666
456,tyrnyauz,43.3828,42.9183,21.2,64,3,1.21,RU,1691038667
457,loyew,51.9458,30.7953,17.93,89,21,2.64,BY,1691038667
458,paita,-5.0892,-81.1144,21.15,81,7,5.59,PE,1691038668
459,priozersk,61.0393,30.1291,18.38,100,100,2.4,RU,1691038669
460,riviere-du-loup,47.8304,-69.5342,14.15,77,71,1.54,CA,1691038458
461,taro,-8.3862,115.28,25.0,55,37,1.95,ID,1691038670
462,sao vicente,-23.9631,-46.3919,24.04,60,0,1.64,BR,1691038671
463,tamanrasset,22.785,5.5228,21.95,53,40,2.06,DZ,1691038672
464,xianshuigu,38.985,117.3828,33.0,70,75,4.0,CN,1691038672
465,magistral'nyy,56.1725,107.4458,25.02,36,90,3.7,RU,1691038673
466,tangalle,6.024,80.7911,32.09,65,25,7.15,LK,1691038673
467,barmer,25.75,71.3833,29.65,62,71,7.95,IN,1691038674
468,idrinskoye,54.3708,92.1358,29.31,39,5,0.33,RU,1691038674
469,severo-yeniseyskiy,60.3725,93.0408,23.0,38,99,3.67,RU,1691038675
470,cill airne,52.05,-9.5167,13.19,93,100,5.53,IE,1691038676
471,meadow lakes,61.6247,-149.6011,23.69,68,0,2.57,US,1691038676
472,ribeira brava,32.65,-17.0667,24.35,82,88,1.42,PT,1691038677
473,hanumangarh,29.5833,74.3167,36.36,43,8,3.97,IN,1691038677
474,flying fish cove,-10.4217,105.6791,23.82,100,100,4.63,CX,1691038678
475,gazojak,41.1875,61.4036,34.9,12,0,4.3,TM,1691038679
476,suva,-18.1416,178.4415,22.71,88,75,4.63,FJ,1691038622
477,ta`u,-14.2336,-169.5144,27.38,72,18,4.24,AS,1691038680
478,nicoya,10.1483,-85.452,24.49,91,100,0.45,CR,1691038680
479,ghanzi,-21.5667,21.7833,8.24,79,1,4.39,BW,1691038519
480,gulf shores,30.246,-87.7008,29.47,52,0,0.0,US,1691038455
481,hanover,52.3705,9.7332,17.21,95,100,7.2,DE,1691038545
482,kushiro,42.975,144.3747,25.53,78,75,3.6,JP,1691038682
483,berezovyy,51.6667,135.7,22.69,42,52,2.79,RU,1691038683
484,acheng,45.5454,126.977,26.38,88,97,3.97,CN,1691038684
485,bikenibeu village,1.3673,173.1241,30.98,70,40,2.57,KI,1691038684
486,remire-montjoly,4.9167,-52.2667,23.02,100,0,0.0,GF,1691038685
487,robore,-18.3333,-59.75,23.46,42,0,1.36,BO,1691038685
488,neon karlovasion,37.7903,26.7044,25.5,62,0,1.54,GR,1691038686
489,pama,11.2497,0.7075,22.56,94,79,2.7,BF,1691038687
490,ghazni,33.5536,68.4269,26.32,19,0,1.98,AF,1691038687
491,noumea,-22.2763,166.4572,22.22,99,100,7.25,NC,1691038342
492,hovd,48.0056,91.6419,24.87,36,14,4.05,MN,1691038688
493,oruro,-17.9833,-67.15,4.22,25,0,2.58,BO,1691038689
494,murghob,38.1702,73.9667,13.12,44,47,1.3,TJ,1691038689
495,sinjai,-5.1241,120.253,28.86,64,33,3.2,ID,1691038690
496,urengoy,65.9667,78.3667,26.31,43,4,5.76,RU,1691038691
497,siwa oasis,29.2041,25.5195,29.35,38,0,3.56,EG,1691038691
498,howrah,22.5892,88.3103,31.0,79,40,5.66,IN,1691038545
499,punta del este,-34.9667,-54.95,12.2,66,0,7.72,UY,1691038692
500,mananjary,-21.2167,48.3333,19.78,88,89,5.57,MG,1691038693
501,pathein,16.7833,94.7333,30.67,70,97,7.58,MM,1691038693
502,suwayr,30.1171,40.3893,29.52,19,0,6.85,SA,1691038695
503,buenavista del norte,28.3746,-16.861,25.53,71,6,7.67,ES,1691038695
504,samashki,43.2906,45.3014,23.62,62,2,1.19,RU,1691038696
505,vordingborg,55.008,11.9106,16.68,82,92,5.87,DK,1691038656
506,duba,27.3513,35.6901,32.75,44,4,2.15,SA,1691038697
507,vodice,43.7608,15.7828,26.5,72,0,4.98,HR,1691038697
508,taroudant,30.4703,-8.877,20.54,76,0,1.07,MA,1691038698
509,saipan,15.1355,145.701,31.39,100,40,4.12,MP,1691038699
510,keflavik,64.0049,-22.5624,11.95,87,75,3.09,IS,1691038699
511,shevchenkove,49.6959,37.1735,23.33,63,98,0.64,UA,1691038700
512,hasaki,35.7333,140.8333,35.73,77,46,8.59,JP,1691038700
513,sal rei,16.1833,-22.9167,24.71,74,66,2.25,CV,1691038701
514,zakynthos,37.7914,20.8953,24.24,78,0,0.46,GR,1691038701
515,gulf breeze,30.3571,-87.1639,29.45,80,0,0.0,US,1691038702
516,stuttgart,48.7823,9.177,18.65,69,0,5.66,DE,1691038703
517,biltine,14.5333,20.9167,26.9,61,99,2.27,TD,1691038703
518,lumut,4.2323,100.6298,31.01,70,20,1.54,MY,1691038704
519,katihar,25.5333,87.5833,31.93,65,100,8.39,IN,1691038704
520,levuka,50.1834,-105.4011,16.9,35,92,3.66,CA,1691038705
521,hanawa,40.1836,140.7872,29.58,76,98,1.87,JP,1691038706
522,tucano,-10.9631,-38.7867,20.76,94,100,2.02,BR,1691038707
523,thanh hoa,19.8,105.7667,30.98,74,60,2.21,VN,1691038707
524,trairi,-3.2778,-39.2689,25.11,87,16,4.8,BR,1691038708
525,al kharj,24.155,47.3346,34.32,9,0,3.33,SA,1691038708
526,san martin de los andes,-40.1604,-71.3486,-1.86,92,42,1.0,AR,1691038709
527,revda,56.801,59.9303,20.58,74,98,1.6,RU,1691038700
528,macherla,16.4833,79.4333,29.89,58,100,9.59,IN,1691038710
529,brezina,33.0989,1.2608,26.94,12,0,3.96,DZ,1691038711
530,sao miguel do iguacu,-25.3481,-54.2378,18.69,67,0,1.64,BR,1691038711
531,weleri,-6.9713,110.0666,32.94,54,12,3.59,ID,1691038712
532,chilecito,-29.1619,-67.4974,15.77,40,29,2.57,AR,1691038713
533,pyin oo lwin,22.0333,96.4667,21.18,95,100,1.67,MM,1691038713
534,quiberon,47.4841,-3.1196,16.71,90,83,8.94,FR,1691038714
535,tezu,27.9167,96.1667,24.58,99,100,1.1,IN,1691038714
536,bay roberts,47.5999,-53.2648,16.86,96,100,0.89,CA,1691038715
537,pitimbu,-7.4706,-34.8086,23.33,84,79,6.91,BR,1691038716
538,tukrah,32.5341,20.5791,26.94,58,0,0.31,LY,1691038716
539,ar rutbah,33.0381,40.2848,29.74,20,0,5.6,IQ,1691038717
540,rondonopolis,-16.4708,-54.6356,21.83,39,0,1.45,BR,1691038717
541,mubende,0.5606,31.39,19.2,74,94,0.39,UG,1691038718
542,aljezur,37.3191,-8.8033,16.92,88,26,5.41,PT,1691038718
543,tura,25.5198,90.2201,26.43,82,100,2.87,IN,1691038716
544,fale old settlement,-9.3852,-171.2468,28.15,77,49,6.46,TK,1691038650
545,kota kinabalu,5.9749,116.0724,27.99,89,40,4.12,MY,1691038670
546,revelstoke,50.9832,-118.2023,27.01,28,100,2.57,CA,1691038631
547,la huacana,18.9667,-101.8167,23.14,97,98,1.63,MX,1691038721
548,chonchi,-42.6128,-73.8092,2.29,92,43,1.0,CL,1691038722
549,alamos,27.0167,-108.9333,23.63,88,69,2.88,MX,1691038722
550,gilau,46.7324,23.3617,14.25,69,0,1.19,RO,1691038723
551,patterson,37.4716,-121.1297,22.1,50,8,2.2,US,1691038577
552,la passe,45.5549,-0.8967,16.13,74,42,9.06,FR,1691038724
553,adilabad,19.6667,78.5333,24.46,89,100,6.34,IN,1691038725
554,poplar bluff,36.757,-90.3929,26.94,74,20,0.0,US,1691038725
555,vaskelovo,60.3693,30.3534,17.25,97,100,1.65,RU,1691038726
556,benin city,6.335,5.6275,22.5,94,100,1.21,NG,1691038728
557,kuhsan,34.6539,61.1978,32.9,14,0,11.71,AF,1691038728
558,pirallahi,40.4723,50.333,29.08,80,0,6.99,AZ,1691038729
559,klaksvik,62.2266,-6.589,9.51,98,100,9.51,FO,1691038729
560,la'ie,21.6477,-157.9253,28.98,72,3,1.79,US,1691038730
561,palembang,-2.9167,104.7458,31.05,66,75,3.09,ID,1691038730
562,porto velho,-8.7619,-63.9039,24.03,94,0,0.0,BR,1691038722
563,as sulayyil,20.4607,45.5779,31.14,14,25,10.56,SA,1691038734
564,tucurui,-3.7661,-49.6725,23.57,58,34,1.55,BR,1691038663
565,horizontina,-27.6258,-54.3078,15.42,81,1,1.38,BR,1691038736
566,hailar,49.2,119.7,15.0,88,100,11.81,CN,1691038736
567,qamdo,31.1667,97.2333,12.51,64,97,1.78,CN,1691038737
568,petrolina,-9.3986,-40.5008,22.03,88,75,1.54,BR,1691038684
